{
    "total": 6,
    "businesses": [
        {
            "dates": "all Dog Meet and Greet at Friditas\r\nNovember 22, 2016 to June 20, 20176:30 p.m. to 8:00 p.m.",
            "description": null,
            "location": {
                "address1": "132 Hazelwood Dr.",
                "zip_code": "94080",
                "state": "CA",
                "country": "US",
                "city": "San Francisco"
            },
            "name": "Small Dog Meet and Greet at Friditas",
            "url": "http://dogtrekker.com/event/small-dog-meet-and-greet-at-friditas",
            "coordinates": {
                "latitude": null,
                "longitude": null
            }
        },
        {
            "dates": "easure Island Flea\r\nNovember 26, 2016 to November 27, 201610:00 a.m. to 4:00 p.m.",
            "description": null,
            "location": {
                "address1": "Ave. of the Palms",
                "zip_code": "& Map",
                "state": "CA",
                "country": "US",
                "city": "San Francisco"
            },
            "name": "Treasure Island Flea",
            "url": "http://dogtrekker.com/event/treasure-island-flea-11",
            "coordinates": {
                "latitude": null,
                "longitude": null
            }
        },
        {
            "dates": "all Dog Meet and Greet at Friditas\r\nNovember 26, 2016 to June 17, 201711:00 a.m. to 12:30 p.m.",
            "description": null,
            "location": {
                "address1": "132 Hazelwood Dr.",
                "zip_code": "94080",
                "state": "CA",
                "country": "US",
                "city": "San Francisco"
            },
            "name": "Small Dog Meet and Greet at Friditas",
            "url": "http://dogtrekker.com/event/small-dog-meet-and-greet-at-friditas",
            "coordinates": {
                "latitude": null,
                "longitude": null
            }
        },
        {
            "dates": "all Dog Meet and Greet at Friditas\r\nNovember 27, 2016 to June 18, 201711:00 a.m. to 12:30 p.m.",
            "description": null,
            "location": {
                "address1": "132 Hazelwood Dr.",
                "zip_code": "94080",
                "state": "CA",
                "country": "US",
                "city": "San Francisco"
            },
            "name": "Small Dog Meet and Greet at Friditas",
            "url": "http://dogtrekker.com/event/small-dog-meet-and-greet-at-friditas",
            "coordinates": {
                "latitude": null,
                "longitude": null
            }
        },
        {
            "dates": "all Dog Meet and Greet at Friditas\r\nNovember 29, 2016 to June 27, 20176:30 p.m. to 8:00 p.m.",
            "description": null,
            "location": {
                "address1": "132 Hazelwood Dr.",
                "zip_code": "94080",
                "state": "CA",
                "country": "US",
                "city": "San Francisco"
            },
            "name": "Small Dog Meet and Greet at Friditas",
            "url": "http://dogtrekker.com/event/small-dog-meet-and-greet-at-friditas",
            "coordinates": {
                "latitude": null,
                "longitude": null
            }
        },
        {
            "dates": "stive Holiday Luncheon\r\nDecember 1, 2016 7:00 p.m. to 10:00 p.m.",
            "description": null,
            "location": {
                "address1": "335 Powell St.",
                "zip_code": "& Map",
                "state": "CA",
                "country": "US",
                "city": "San Francisco"
            },
            "name": "Festive Holiday Luncheon",
            "url": "http://dogtrekker.com/event/festive-holiday-luncheon-2016",
            "coordinates": {
                "latitude": null,
                "longitude": null
            }
        }
    ]
}